[
  {
    "name": "24/7 Sicherheit GmbH",
    "milog": "OK",
    "phone": "05206 969600",
    "street": "Westerfeldstraße 37",
    "zip": "33611",
    "city": "Bielefeld",
    "email": "leitstelle@24-7.nrw",
    "securitas": "Fehlt!",
    "lat": 52.05813975245562,
    "lon": 8.544734839927871,
    "datumAnfrage": "09.02.2024",
    "datumBestaetigung": "10.02.2024"
  },
  {
    "name": "A&A Sicherheit und Service GmbH",
    "milog": "OK",
    "phone": "0251 7474619",
    "street": "Südstraße 26",
    "zip": "48153",
    "city": "Münster",
    "email": "info@aua-sicherheit.de",
    "securitas": "Fehlt!",
    "lat": 51.953285,
    "lon": 7.627631,
    "datumAnfrage": "26.12.2023",
    "datumBestaetigung": "26.12.2023"
  },
  {
    "name": "A:S: Advanced Security GmbH",
    "milog": "OK",
    "phone": "893547565",
    "street": "Ahornstraße 11",
    "zip": "85774",
    "city": "Unterföhring",
    "email": "sebastian.traudisch@nwsgmbh.de",
    "securitas": "Fehlt!",
    "lat": 48.196821,
    "lon": 11.649774,
    "datumAnfrage": "05.05.2022",
    "datumBestaetigung": "05.05.2022"
  },
  {
    "name": "ABS Alarm-, Bewachungs- und Sicherheitsdienst GmbH",
    "milog": "OK",
    "phone": "038177093088",
    "street": "Handelsstr. 3",
    "zip": "18069",
    "city": "Rostock",
    "email": "info@abs-sicherheitsdienst.de",
    "securitas": "Fehlt!",
    "lat": 54.123871,
    "lon": 12.078345,
    "datumAnfrage": "24.08.2024",
    "datumBestaetigung": "24.08.2024"
  },
  {
    "name": "ABS Alarm-... (Zentrale)",
    "milog": "OK",
    "phone": "0381 77093088",
    "street": "Handelsstraße 3",
    "zip": "18069",
    "city": "Rostock",
    "email": "zentrale@abs-sicherheitsdienst.de",
    "securitas": "Fehlt!",
    "lat": 54.123871,
    "lon": 12.078345
  },
  {
    "name": "ABS Weiler GmbH",
    "milog": "OK",
    "phone": "0659690080",
    "street": "Im Gewerbegebiet 13",
    "zip": "54552",
    "city": "Üdersdorf",
    "email": "kontakt@abs-weiler.de",
    "securitas": "Fehlt!",
    "lat": 50.151393641515,
    "lon": 6.811055086235169,
    "datumAnfrage": "",
    "datumBestaetigung": "08.04.2019"
  },
  {
    "name": "AF Security GmbH",
    "milog": "OK",
    "phone": "02241/1625244",
    "street": "Dammstraße 55",
    "zip": "53721",
    "city": "Siegburg",
    "email": "afs.sicherheitsdienst@gmail.com",
    "securitas": "Fehlt!",
    "lat": 50.79305010922645,
    "lon": 7.225895197542421,
    "datumAnfrage": "15.06.2025",
    "datumBestaetigung": "15.06.2025"
  },
  {
    "name": "All Service Sicherheitsdienste GmbH",
    "milog": "OK",
    "phone": "069 095425797",
    "street": "Am Trippelsberg 92",
    "zip": "40589",
    "city": "Düsseldorf",
    "email": "Personenbgebunden",
    "securitas": "Fehlt!",
    "lat": 51.1651963386015,
    "lon": 6.839136797559064,
    "datumAnfrage": "13.03.2020",
    "datumBestaetigung": "26.03.2020"
  },
  {
    "name": "ANZ Alarm-Notruf-Zentrale GmbH",
    "milog": "OK",
    "phone": "44219330050",
    "street": "An der Junkerei 38",
    "zip": "26389",
    "city": "Wilhelmshaven",
    "email": "info@eurosecurity.de",
    "securitas": "Fehlt!",
    "lat": 53.5269389,
    "lon": 8.0742373,
    "datumAnfrage": "",
    "datumBestaetigung": "13.03.2023"
  },
  {
    "name": "ARGUS Wach- und Schließgesellschaft mbH",
    "milog": "Angefragt",
    "phone": "03471 311601",
    "street": "Kalistraße 11",
    "zip": "06406",
    "city": "Bernburg (Saale)",
    "email": "argusgmbh@msn.com",
    "securitas": "Fehlt!",
    "lat": 51.7774556,
    "lon": 11.7360289
  },
  {
    "name": "Arlt Wach-, Schliess- und Schutzdienst GmbH",
    "milog": "OK",
    "phone": "0341 484420",
    "street": "Spinnereistraße 2",
    "zip": "04179",
    "city": "Leipzig",
    "email": "info@arlt-wachdienst.de",
    "securitas": "Fehlt!",
    "lat": 51.328745906371005,
    "lon": 12.320950328252751,
    "datumAnfrage": "08.05.2017",
    "datumBestaetigung": "16.05.2017"
  },
  {
    "name": "ASC Alarm Service Center",
    "milog": "OK",
    "phone": "033439 / 17617",
    "street": "Fredersdorfer Chaussee 38 f",
    "zip": "15370",
    "city": "Fredersdorf",
    "email": "info@alarm-service-center.de",
    "securitas": "Fehlt!",
    "lat": 52.546597,
    "lon": 13.7446124,
    "datumAnfrage": "17.07.2017",
    "datumBestaetigung": "18.07.2017"
  },
  {
    "name": "AXIS Sicherheitsdienste GmbH",
    "milog": "OK",
    "phone": "030 63221676",
    "street": "Hohenzollerndamm 150",
    "zip": "14199",
    "city": "Berlin",
    "email": "info@axis-sicherheit.de",
    "securitas": "Fehlt!",
    "lat": 52.4855091,
    "lon": 13.298167,
    "datumAnfrage": "10.06.2020",
    "datumBestaetigung": "12.06.2020"
  },
  {
    "name": "B.K & S.I - Security e.K.",
    "milog": "OK",
    "phone": "02173 / 1650177",
    "street": "Raiffeisenstraße 3a",
    "zip": "40764",
    "city": "Langenfeld",
    "email": "info@bk-si-security.de",
    "securitas": "Fehlt!",
    "lat": 51.1224312,
    "lon": 6.9218795,
    "datumAnfrage": "09.05.2023",
    "datumBestaetigung": "09.05.2023"
  },
  {
    "name": "Badische Detektei und Sicherheitsdienst",
    "milog": "OK",
    "phone": "07821 3273325",
    "street": "Talstraße 8",
    "zip": "77948",
    "city": "Friesenheim",
    "email": "info@bds-detektei.de",
    "securitas": "Fehlt!",
    "lat": 48.37430297746916,
    "lon": 7.90667328198706,
    "datumAnfrage": "05.08.2024",
    "datumBestaetigung": "05.08.2024"
  },
  {
    "name": "Bavaria Sicherheit Regional Süd-Ost GmbH",
    "milog": "OK",
    "phone": "08821 7985900",
    "street": "Klammstraße 7",
    "zip": "82467",
    "city": "Garmisch-Partenkirchen",
    "email": "nsl@bavado.com",
    "securitas": "Fehlt!",
    "lat": 47.4927544,
    "lon": 11.0899735
  },
  {
    "name": "big Sicherheit GmbH",
    "milog": "OK",
    "phone": "0721 8206-100",
    "street": "Ehrmannstraße 6",
    "zip": "76135",
    "city": "Karlsruhe",
    "email": "info@big-gruppe.com",
    "securitas": "Fehlt!",
    "lat": 49.001664818911735,
    "lon": 8.382179997463655,
    "datumAnfrage": "06.04.2020",
    "datumBestaetigung": "22.04.2020"
  },
  {
    "name": "BIP Dienstleistungen GmbH",
    "milog": "OK",
    "phone": "04131 2300010",
    "street": "Stadtkoppel 4",
    "zip": "21337",
    "city": "Lüneburg",
    "email": "info@bip-dienstleistungen.de",
    "securitas": "Fehlt!",
    "lat": 53.24827594856865,
    "lon": 10.446387153475147,
    "datumAnfrage": "31.08.2020",
    "datumBestaetigung": "31.08.2020"
  },
  {
    "name": "Braunschweiger Wach- und Schließgesellschaft GmbH",
    "milog": "OK",
    "phone": "0531 28500",
    "street": "Donaustraße 19",
    "zip": "38120",
    "city": "Braunschweig",
    "email": "info@bwus.de",
    "securitas": "Fehlt!",
    "lat": 52.24091431548202,
    "lon": 10.4889538292256
  },
  {
    "name": "BSS Sicherheitsdienst",
    "milog": "OK",
    "phone": "0172 3524520",
    "street": "Bahnhofstraße 7",
    "zip": "77746",
    "city": "Schutterwald",
    "email": "info@bss-sicherheitsdienst.de",
    "securitas": "Fehlt!",
    "lat": 48.45533535619795,
    "lon": 7.888389997440104,
    "datumAnfrage": "22.06.2024",
    "datumBestaetigung": "22.06.2024"
  },
  {
    "name": "BWS Sicherheitsdienst Harlass-Roth Bartenstein GmbH",
    "milog": "OK",
    "phone": "069888145",
    "street": "Heinrich-Krumm-Str. 9",
    "zip": "63073",
    "city": "Offenbach am Main",
    "email": "info@bws-offenbach.de",
    "securitas": "Fehlt!",
    "lat": 50.08485033439719,
    "lon": 8.8304765551826,
    "datumAnfrage": "",
    "datumBestaetigung": "15.03.2024"
  },
  {
    "name": "City Control Mobile Sicherheitsdienstleistungen und Alarmtechnik GmbH",
    "milog": "OK",
    "phone": "01624085521",
    "street": "Hildesheimer Str. 14a",
    "zip": "15366",
    "city": "Neuenhagen bei Berlin",
    "email": "nsl@citycontrol-mobil.de",
    "securitas": "Fehlt!",
    "lat": 52.519639411585345,
    "lon": 13.71208249762056,
    "datumAnfrage": "30.04.2021",
    "datumBestaetigung": "30.04.2021"
  },
  {
    "name": "City Schutz GmbH",
    "milog": "OK",
    "phone": "03445 705540",
    "street": "Gewerbegebietsstraße 24",
    "zip": "06618",
    "city": "Schönburg",
    "email": "nsl@city-schutz.de",
    "securitas": "Fehlt!",
    "lat": 51.142975647272806,
    "lon": 11.839439096338353,
    "datumAnfrage": "27.08.2021",
    "datumBestaetigung": "27.08.2021"
  },
  {
    "name": "CMS-Sicherheits GmbH",
    "milog": "OK",
    "phone": "075439525670",
    "street": "Lindauer Str. 2",
    "zip": "88085",
    "city": "Langenargen",
    "email": "info@cms-sicherheits.com",
    "securitas": "Fehlt!",
    "lat": 47.59671274979693,
    "lon": 9.542255363045449,
    "datumAnfrage": "",
    "datumBestaetigung": "07.12.2021"
  },
  {
    "name": "Compakt Dienstleistungs GmbH",
    "milog": "OK",
    "phone": "03361 - 747 888 10",
    "street": "Rudolf-Breitscheid-Str. 8",
    "zip": "15517",
    "city": "Fürstenwalde/Spree",
    "email": "alarmzentrale@compakt.de",
    "securitas": "Fehlt!",
    "lat": 52.3573486,
    "lon": 14.0521646,
    "datumAnfrage": "10.09.2020",
    "datumBestaetigung": "11.09.2020"
  },
  {
    "name": "CONDOR Schutz- und Sicherheitsdienst GmbH",
    "milog": "OK",
    "phone": "0201 841530",
    "street": "Ruhrtalstraße 81",
    "zip": "45239",
    "city": "Essen",
    "email": "NSL.Essen@condor-sicherheit.de",
    "securitas": "Fehlt!",
    "lat": 51.3819156,
    "lon": 6.9859967,
    "datumAnfrage": "20.02.2021",
    "datumBestaetigung": "20.02.2021"
  },
  {
    "name": "CP Complete Protection GmbH",
    "milog": "OK",
    "phone": "37130685009",
    "street": "Augsburger Str. 91",
    "zip": "09126",
    "city": "Chemnitz",
    "email": "kontakt@cp-security.com",
    "securitas": "Fehlt!",
    "lat": 50.808449,
    "lon": 12.9376538,
    "datumAnfrage": "",
    "datumBestaetigung": "22.06.2022"
  },
  {
    "name": "DK Sicherheit e. K.",
    "milog": "OK",
    "phone": "04152 1360600",
    "street": "Süderkamp 7",
    "zip": "21502",
    "city": "Geesthacht",
    "email": "kraatz@dksicherheit.de",
    "securitas": "Fehlt!",
    "lat": 53.4454408,
    "lon": 10.3779068,
    "datumAnfrage": "27.07.2020",
    "datumBestaetigung": "27.07.2020"
  },
  {
    "name": "DSD Dresdner Sicherheitsdienst GmbH",
    "milog": "OK",
    "phone": "0351 8211143",
    "street": "Loschwitzer Str. 15A",
    "zip": "01309",
    "city": "Dresden",
    "email": "info@dresdener-sicherheitsdienst.de",
    "securitas": "Fehlt!",
    "lat": 51.054384,
    "lon": 13.7920855,
    "datumAnfrage": "21.04.2020",
    "datumBestaetigung": "22.04.2020"
  },
  {
    "name": "Eitner Security GmbH & Co. KG",
    "milog": "OK",
    "phone": "030 81704665",
    "street": "Mädewalder Weg 30",
    "zip": "12621",
    "city": "Berlin",
    "email": "kontakt@eitner-security.de",
    "securitas": "Fehlt!",
    "lat": 52.5079266,
    "lon": 13.5882447,
    "datumAnfrage": "09.08.2017",
    "datumBestaetigung": "05.10.2020"
  },
  {
    "name": "EOS Sicherheitsdienst GmbH & Co. KG",
    "milog": "OK",
    "phone": "07321 94700",
    "street": "In den Tieräckern 7",
    "zip": "89520",
    "city": "Heidenheim an der Brenz",
    "email": "info@eos-online.de",
    "securitas": "Fehlt!",
    "lat": 48.6948383,
    "lon": 10.1690969,
    "datumAnfrage": "23.07.2020",
    "datumBestaetigung": "23.07.2020"
  },
  {
    "name": "ESD Dienstleistungsgruppe",
    "milog": "OK",
    "phone": "08631 36820",
    "street": "Mühlbauerstraße 8",
    "zip": "84453",
    "city": "Mühldorf am Inn",
    "email": "serviceleitstelle@esd.de",
    "securitas": "Fehlt!",
    "lat": 48.2570924,
    "lon": 12.5456337,
    "datumAnfrage": "10.12.2020",
    "datumBestaetigung": "30.12.2020"
  },
  {
    "name": "ESS - Erlanger Sicherheits-Service GmbH",
    "milog": "OK",
    "phone": "09131 685940",
    "street": "Zeppelinstraße 26",
    "zip": "91052",
    "city": "Erlangen",
    "email": "auftragsmanagement-er@ess-erlangen.de",
    "securitas": "Fehlt!",
    "lat": 49.5874886,
    "lon": 11.0123806,
    "datumAnfrage": "12.11.2020",
    "datumBestaetigung": "22.06.2021"
  },
  {
    "name": "Falkenservice Security",
    "milog": "Angefragt",
    "phone": "03535 4930",
    "street": "Frankfurter Str. 16A",
    "zip": "04916",
    "city": "Herzberg (Elster)",
    "email": "",
    "securitas": "Fehlt!",
    "lat": 51.6982954,
    "lon": 13.2533006,
    "datumAnfrage": "05.03.2020",
    "datumBestaetigung": ""
  },
  {
    "name": "FB - Sicherheit",
    "milog": "OK",
    "phone": "07161 3088189",
    "street": "Hauptstraße 17",
    "zip": "73092",
    "city": "Heiningen",
    "email": "zentrale@fb-sicherheit.com",
    "securitas": "Fehlt!",
    "lat": 48.6621367,
    "lon": 9.6495819,
    "datumAnfrage": "04.03.2020",
    "datumBestaetigung": "04.03.2020"
  },
  {
    "name": "FSD Security",
    "milog": "Angefragt",
    "phone": "0221 84659820",
    "street": "Mielenforster Str. 8",
    "zip": "51069",
    "city": "Köln",
    "email": "",
    "securitas": "Fehlt!",
    "lat": 50.9711885,
    "lon": 7.074957,
    "datumAnfrage": "30.09.2016",
    "datumBestaetigung": ""
  },
  {
    "name": "Gabel Security GmbH",
    "milog": "OK",
    "phone": "030 219 842 80",
    "street": "Tauchersteig 1",
    "zip": "12527",
    "city": "Berlin",
    "email": "info@gabel-security.de",
    "securitas": "Fehlt!",
    "lat": 52.4277679,
    "lon": 13.5721126,
    "datumAnfrage": "20.08.2023",
    "datumBestaetigung": "20.08.2023"
  },
  {
    "name": "Golden Eye Sicherheitsdienst",
    "milog": "OK",
    "phone": "06101 9563011",
    "street": "Maßbornstraße 17",
    "zip": "60437",
    "city": "Frankfurt am Main",
    "email": "info@goldeneye-sicherheitsdienst.de",
    "securitas": "Fehlt!",
    "lat": 50.1844482,
    "lon": 8.696448,
    "datumAnfrage": "13.03.2020",
    "datumBestaetigung": "13.03.2020"
  },
  {
    "name": "Götz-Management-Holding AG",
    "milog": "OK",
    "phone": "0941 64040",
    "street": "Hofer Straße 10",
    "zip": "93057",
    "city": "Regensburg",
    "email": "service@goetz-fm.com",
    "securitas": "Fehlt!",
    "lat": 49.0595327,
    "lon": 12.1339834
  },
  {
    "name": "GROS Sicherheit GmbH",
    "milog": "Angefragt",
    "phone": "069 46091703",
    "street": "Große Rittergasse 69-71",
    "zip": "60594",
    "city": "Frankfurt am Main",
    "email": "info@gros-sicherheit.de",
    "securitas": "Fehlt!",
    "lat": 50.1054229,
    "lon": 8.6932342,
    "datumAnfrage": "07.02.2020",
    "datumBestaetigung": ""
  },
  {
    "name": "GS Guardian Security GmbH",
    "milog": "OK",
    "phone": "06187 9382364",
    "street": "Ostheimer Straße 47",
    "zip": "61130",
    "city": "Nidderau",
    "email": "info@guardiansecurity-ffm.de",
    "securitas": "Fehlt!",
    "lat": 50.2243932,
    "lon": 8.8917633,
    "datumAnfrage": "26.07.2025",
    "datumBestaetigung": "26.07.2025"
  },
  {
    "name": "H & A Security",
    "milog": "OK",
    "phone": "01624570999",
    "street": "Lusring 16",
    "zip": "79650",
    "city": "Schopfheim",
    "email": "info@ha-security.com",
    "securitas": "Fehlt!",
    "lat": 47.6431788,
    "lon": 7.8149389,
    "datumAnfrage": "",
    "datumBestaetigung": "23.04.2025"
  },
  {
    "name": "H.D. Klotz Wachdienst",
    "milog": "OK",
    "phone": "0231 - 31861",
    "street": "Deusener Straße 141",
    "zip": "44369",
    "city": "Dortmund",
    "email": "info@wachdienst-klotz.de",
    "securitas": "Fehlt!",
    "lat": 51.5422912,
    "lon": 7.4289027,
    "datumAnfrage": "31.07.2024",
    "datumBestaetigung": ""
  },
  {
    "name": "H.W.P Hamburger Wachunternehmen & Personalservice",
    "milog": "OK",
    "phone": "04101 8205170",
    "street": "Damm 33",
    "zip": "25421",
    "city": "Pinneberg",
    "email": "info@hwp-hh.de",
    "securitas": "Fehlt!",
    "lat": 53.660595,
    "lon": 9.8039717,
    "datumAnfrage": "09.07.2023",
    "datumBestaetigung": "10.07.2023"
  },
  {
    "name": "Hal Securi GmbH",
    "milog": "OK",
    "phone": "0345 5606670",
    "street": "Delitzscher Str. 127",
    "zip": "06116",
    "city": "Halle (Saale)",
    "email": "info@hal-securi.com",
    "securitas": "Fehlt!",
    "lat": 51.4789059,
    "lon": 12.0235132,
    "datumAnfrage": "27.01.2020",
    "datumBestaetigung": "30.01.2020"
  },
  {
    "name": "Happe Sicherheitsdienst",
    "milog": "OK",
    "phone": "02065 6869-678",
    "street": "Ackerstrasse 53",
    "zip": "47229",
    "city": "Duisburg",
    "email": "kontakt@wsd-bewachung.de",
    "securitas": "Fehlt!",
    "lat": 51.3851425,
    "lon": 6.6971155,
    "datumAnfrage": "29.04.2021",
    "datumBestaetigung": "29.04.2021"
  },
  {
    "name": "Hargesheimer Security Wachdienst",
    "milog": "OK",
    "phone": "06341 92920",
    "street": "Drachenfelsstraße 2",
    "zip": "76829",
    "city": "Landau",
    "email": "sls@hargesheimer.de",
    "securitas": "Fehlt!",
    "lat": 49.1911878,
    "lon": 8.095011,
    "datumAnfrage": "03.05.2023",
    "datumBestaetigung": "03.05.2023"
  },
  {
    "name": "Heckermann Objektschutz GmbH & Co. KG",
    "milog": "OK",
    "phone": "02102 929190",
    "street": "Poststraße 18",
    "zip": "40878",
    "city": "Ratingen",
    "email": "info@HOS-Ratingen.de",
    "securitas": "Fehlt!",
    "lat": 51.2956747,
    "lon": 6.8541362,
    "datumAnfrage": "",
    "datumBestaetigung": "06.04.2016"
  },
  {
    "name": "HECTAS Sicherheitsdienste GmbH",
    "milog": "Angefragt",
    "phone": "0202 5646603",
    "street": "Am Diek 52",
    "zip": "42277",
    "city": "Wuppertal",
    "email": "info@hectas.com",
    "securitas": "Fehlt!",
    "lat": 51.2855183,
    "lon": 7.2243217,
    "datumAnfrage": "20.03.2020",
    "datumBestaetigung": ""
  },
  {
    "name": "Hepp Sicherheit GmbH",
    "milog": "OK",
    "phone": "07628 8056226",
    "street": "Beim Breitenstein 10",
    "zip": "79588",
    "city": "Efringen-Kirchen",
    "email": "heppsicherheit@gmx.net",
    "securitas": "Fehlt!",
    "lat": 47.655831,
    "lon": 7.568658,
    "datumAnfrage": "24.11.2023",
    "datumBestaetigung": "24.11.2023"
  },
  {
    "name": "HS Sicherheits GmbH",
    "milog": "OK",
    "phone": "0209 16203072",
    "street": "Hans-Böckler-Allee 43",
    "zip": "45883",
    "city": "Gelsenkirchen",
    "email": "Mail bei Anruf erfragen (Personengebunden)",
    "securitas": "Fehlt!",
    "lat": 51.5101742,
    "lon": 7.073976,
    "datumAnfrage": "",
    "datumBestaetigung": "08.01.2021"
  },
  {
    "name": "ISSM-GmbH Individual Service & Security Management",
    "milog": "OK",
    "phone": "07251 367762",
    "street": "Bruchsaler Str. 80",
    "zip": "76698",
    "city": "Forst",
    "email": "info@issm-gmbh.de",
    "securitas": "Fehlt!",
    "lat": 49.1473691,
    "lon": 8.5875562
  },
  {
    "name": "Kasseler Wach- und Schließinstitut Bohrer GmbH",
    "milog": "OK",
    "phone": "0561 200990",
    "street": "Kohlenstraße 45",
    "zip": "34121",
    "city": "Kassel",
    "email": "zentrale@kws-sicherheit.de",
    "securitas": "Fehlt!",
    "lat": 51.3087641,
    "lon": 9.4625524
  },
  {
    "name": "Katirga K. Knauer Security",
    "milog": "OK",
    "phone": "0171 3266592",
    "street": "Auf der Brede 37",
    "zip": "32423",
    "city": "Minden",
    "email": "K.knauer-Katigra@web.de",
    "securitas": "Fehlt!",
    "lat": 52.2867208,
    "lon": 8.9543767,
    "datumAnfrage": "08.01.2022",
    "datumBestaetigung": "09.01.2022"
  },
  {
    "name": "KEIGO-Sicherheit Simon Kohlhaas",
    "milog": "OK",
    "phone": "01577 2533419",
    "street": "Rott 128D",
    "zip": "47800",
    "city": "Krefeld",
    "email": "info@keigo-sicherheit.de",
    "securitas": "Fehlt!",
    "lat": 51.3455321,
    "lon": 6.5976708,
    "datumAnfrage": "04.03.2020",
    "datumBestaetigung": "06.03.2020"
  },
  {
    "name": "Kieler Wach & Sicherheitsgesellschaft mbH & Co. KG",
    "milog": "OK",
    "phone": "0431 64064",
    "street": "Hamburger Chaussee 6",
    "zip": "24114",
    "city": "Kiel",
    "email": "info@kws-kiel.de",
    "securitas": "Fehlt!",
    "lat": 54.3077574,
    "lon": 10.1239087,
    "datumAnfrage": "",
    "datumBestaetigung": "30.08.2022"
  },
  {
    "name": "Klüh Security",
    "milog": "OK",
    "phone": "0211 4226400",
    "street": "Arena-Straße 1",
    "zip": "40474",
    "city": "Düsseldorf",
    "email": "operation-center@klueh.de",
    "securitas": "Fehlt!",
    "lat": 51.2607701,
    "lon": 6.7342454
  },
  {
    "name": "Klüh Security GmbH / Niederlassung NRW",
    "milog": "OK",
    "phone": "0211 422 640 43",
    "street": "Arena-Straße 1",
    "zip": "40474",
    "city": "Düsseldorf",
    "email": "a.weinert@klueh.de",
    "securitas": "Fehlt!",
    "lat": 51.2607701,
    "lon": 6.7342454
  },
  {
    "name": "Kowadi KSM GmbH",
    "milog": "OK",
    "phone": "0261 303040",
    "street": "Friedrich-Mohr-Str. 5",
    "zip": "56070",
    "city": "Koblenz",
    "email": "leitstelle@kowadi.de",
    "securitas": "Fehlt!",
    "lat": 50.3796105,
    "lon": 7.572842,
    "datumAnfrage": "09.02.2022",
    "datumBestaetigung": "09.02.2022"
  },
  {
    "name": "Kreuter Sicherheitsdienst",
    "milog": "OK",
    "phone": "06440 9299999",
    "street": "Borngasse 6",
    "zip": "35614",
    "city": "Asslar-Bechlingen",
    "email": "info@kreuter-sicherheitsdienst.de",
    "securitas": "Fehlt!",
    "lat": 50.6274641,
    "lon": 8.4483278,
    "datumAnfrage": "22.07.2024",
    "datumBestaetigung": "22.07.2024"
  },
  {
    "name": "Krüdelbach GmbH & Co. KG",
    "milog": "OK",
    "phone": "0271 45941",
    "street": "Eiserfelder Str. 316",
    "zip": "57080",
    "city": "Siegen (Netphen)",
    "email": "mail@kruedelbach.de",
    "securitas": "Fehlt!",
    "lat": 50.834,
    "lon": 8.0219
  },
  {
    "name": "L&W Security",
    "milog": "OK",
    "phone": "0151 27579191",
    "street": "Gerstenfeldweg 39A",
    "zip": "49716",
    "city": "Meppen",
    "email": "lwsecu@gmx.de",
    "securitas": "Fehlt!",
    "lat": 52.6953247,
    "lon": 7.2493596,
    "datumAnfrage": "10.05.2025",
    "datumBestaetigung": "11.05.2025"
  },
  {
    "name": "M.I.S Security Service GmbH",
    "milog": "OK",
    "phone": "02327 994520",
    "street": "Zollstr. 228",
    "zip": "44869",
    "city": "Bochum",
    "email": "mis-bochum@t-online.de",
    "securitas": "Fehlt!",
    "lat": 51.4460852,
    "lon": 7.1578784,
    "datumAnfrage": "",
    "datumBestaetigung": "19.11.2021"
  },
  {
    "name": "Mala Security Sicherheitsdienst M24",
    "milog": "OK",
    "phone": "06251 8284271",
    "street": "Berliner Ring 117",
    "zip": "64625",
    "city": "Bensheim",
    "email": "Personengebunden",
    "securitas": "Fehlt!",
    "lat": 49.6957425,
    "lon": 8.6116919,
    "datumAnfrage": "17.07.2017",
    "datumBestaetigung": "18.07.2017"
  },
  {
    "name": "MO SEC GmbH",
    "milog": "OK",
    "phone": "0800 6647335",
    "street": "Wallstr. 21",
    "zip": "10179",
    "city": "Alfter/Berlin",
    "email": "info@mp-sec.de",
    "securitas": "Fehlt!",
    "lat": 52.52437,
    "lon": 13.41053,
    "datumAnfrage": "",
    "datumBestaetigung": "03.11.2020"
  },
  {
    "name": "mueller Veranstaltungs- und Sicherheitsdienst",
    "milog": "OK",
    "phone": "03695 8585173",
    "street": "Willi-Steitz-Straße 30",
    "zip": "36433",
    "city": "Bad Salzungen",
    "email": "info@vd-mueller.de",
    "securitas": "Fehlt!",
    "lat": 50.811299,
    "lon": 10.2231933,
    "datumAnfrage": "31.05.2024",
    "datumBestaetigung": "31.05.2024"
  },
  {
    "name": "Münchner Sicherheits und Werkschutz",
    "milog": "OK",
    "phone": "089 74055420",
    "street": "Karl-Schmid Str.14",
    "zip": "81829",
    "city": "München",
    "email": "kontakt@msw-sicherheit.de",
    "securitas": "Fehlt!",
    "lat": 48.1334755,
    "lon": 11.668103
  },
  {
    "name": "münchner sicherheits- und werkschutz gmbh",
    "milog": "OK",
    "phone": "089 74055420",
    "street": "Karl-Schmid Str.14",
    "zip": "81829",
    "city": "München",
    "email": "info@msw-sicherheit.de",
    "securitas": "Fehlt!",
    "lat": 48.1334755,
    "lon": 11.668103
  },
  {
    "name": "MWS Mitteldeutscher Wach- und Sicherheitsdienst Marcel Gebhart",
    "milog": "OK",
    "phone": "03941 5888277",
    "street": "Kurze Str. 10",
    "zip": "38820",
    "city": "Halberstadt",
    "email": "info@mws-sicherheit.de",
    "securitas": "Fehlt!",
    "lat": 51.8882135,
    "lon": 11.0441538,
    "datumAnfrage": "17.07.2020",
    "datumBestaetigung": "17.07.2020"
  },
  {
    "name": "Neitzel-Security",
    "milog": "OK",
    "phone": "02131 2067717",
    "street": "Marienstr. 28",
    "zip": "41542",
    "city": "Dormagen",
    "email": "info@neitzel-security.de",
    "securitas": "Fehlt!",
    "lat": 51.1163878,
    "lon": 6.7677825,
    "datumAnfrage": "30.11.2020",
    "datumBestaetigung": "30.11.2020"
  },
  {
    "name": "PRO Sicherheit Ehmke GmbH (NICHT MEHR BEAUFTRAGEN!!!)",
    "milog": "Abgelehnt",
    "phone": "0209 319340",
    "street": "Schalker Str. 87",
    "zip": "45881",
    "city": "Gelsenkirchen",
    "email": "",
    "securitas": "Fehlt!",
    "lat": 51.51675,
    "lon": 7.0912759
  },
  {
    "name": "Wach- und Schließ GmbH & Co. KG (NICHT MEHR BEAUFTRAGEN!!!)",
    "milog": "Abgelehnt",
    "phone": "02161 824980",
    "street": "Süchtelner Str. 93",
    "zip": "41066",
    "city": "Mönchengladbach",
    "email": "s.rauschen@wus-mg.de",
    "securitas": "Fehlt!",
    "lat": 51.2141056,
    "lon": 6.454421
  },
  {
    "name": "Wachschutz Security-Service GfVM GmbH (NICHT MEHR BEAUFTRAGEN!!!)",
    "milog": "Abgelehnt",
    "phone": "030 76780161",
    "street": "Haynauer Str. 60",
    "zip": "12249",
    "city": "Berlin",
    "email": "webmaster@wachschutz.de",
    "securitas": "Fehlt!",
    "lat": 52.4322425,
    "lon": 13.368203
  },
  {
    "name": "Niedersächsische Wach- und Schliessgesellschaft Eggeling & Schorling KG",
    "milog": "OK",
    "phone": "0511 16320",
    "street": "Vahrenwalder Str. 136",
    "zip": "30165",
    "city": "Hannover",
    "email": "alrmzentral@nwsg.de",
    "securitas": "Fehlt!",
    "lat": 52.3972327,
    "lon": 9.7376578
  },
  {
    "name": "NWÜ Niederrheinische Wirtschafts- Überwachung GmbH & Co. KG",
    "milog": "OK",
    "phone": "02131 92090",
    "street": "Breite Str. 68",
    "zip": "41460",
    "city": "Neuss",
    "email": "leitstelle@nwue-security.de",
    "securitas": "Fehlt!",
    "lat": 51.1964057,
    "lon": 6.6869914
  },
  {
    "name": "Oberbergischer Überwachungsdienst Theißen",
    "milog": "OK",
    "phone": "",
    "street": "Bunsenstr. 1",
    "zip": "51647",
    "city": "Gummersbach",
    "email": "info@wachdienst-theissen.de",
    "securitas": "Fehlt!",
    "lat": 51.0523234,
    "lon": 7.5404003
  },
  {
    "name": "Overwatch Security GmbH",
    "milog": "OK",
    "phone": "0800 1004068",
    "street": "Karl-Carstens-Ring 11",
    "zip": "25381",
    "city": "Elmshorn",
    "email": "info@overwatch-security.de",
    "securitas": "Fehlt!",
    "lat": 53.7363273,
    "lon": 9.6735573,
    "datumAnfrage": "",
    "datumBestaetigung": "11.12.2023"
  },
  {
    "name": "Paffen Wachdienst",
    "milog": "OK",
    "phone": "0228 97275536",
    "street": "Ubierstraße 78",
    "zip": "53173",
    "city": "Bonn",
    "email": "einsatzleiter@paffen-sicherheit.de",
    "securitas": "Fehlt!",
    "lat": 50.691075,
    "lon": 7.1652531,
    "datumAnfrage": "19.06.2025",
    "datumBestaetigung": "20.06.2025"
  },
  {
    "name": "Phalanx Wachdienst GmbH",
    "milog": "OK",
    "phone": "0176 85683991",
    "street": "Erich-Kästner-Straße 4",
    "zip": "69190",
    "city": "Walldorf",
    "email": "Info@Phalanx-Wachdienst.de",
    "securitas": "Fehlt!",
    "lat": 49.2978874,
    "lon": 8.651414,
    "datumAnfrage": "05.10.2023",
    "datumBestaetigung": "05.10.2023"
  },
  {
    "name": "PRO Sicherheit Ehmke GmbH",
    "milog": "OK",
    "phone": "0209 319340",
    "street": "Schalker Str. 87",
    "zip": "45881",
    "city": "Gelsenkirchen",
    "email": "info@pro-sicherheit.net",
    "securitas": "Fehlt!",
    "lat": 51.51675,
    "lon": 7.0912759,
    "datumAnfrage": "",
    "datumBestaetigung": "11.08.2023"
  },
  {
    "name": "Prosure Service GmbH & Co. KG",
    "milog": "OK",
    "phone": "0571 38610780",
    "street": "Sprekelholzkamp 3",
    "zip": "31675",
    "city": "Minden",
    "email": "info@prosure-service.de",
    "securitas": "Fehlt!",
    "lat": 52.2548,
    "lon": 9.0624
  },
  {
    "name": "Revier Wachschutz",
    "milog": "OK",
    "phone": "02362 9798306",
    "street": "Tannenstraße 2",
    "zip": "46284",
    "city": "Dorsten",
    "email": "info@revier-wachschutz.de",
    "securitas": "Fehlt!",
    "lat": 51.6813551,
    "lon": 6.9497554,
    "datumAnfrage": "20.07.2020",
    "datumBestaetigung": "20.07.2020"
  },
  {
    "name": "RSS Security",
    "milog": "OK",
    "phone": "0800 7777328",
    "street": "Freihamer Weg 68",
    "zip": "81249",
    "city": "München",
    "email": "office@rss-security.de",
    "securitas": "Fehlt!",
    "lat": 48.1530831,
    "lon": 11.4103804,
    "datumAnfrage": "",
    "datumBestaetigung": "27.072.020"
  },
  {
    "name": "Rupprecht Alarmruf Wachzentrale GmbH",
    "milog": "OK",
    "phone": "02381 67055",
    "street": "Philipp-Reis-Str. 6",
    "zip": "59065",
    "city": "Hamm",
    "email": "info@awz-rupprecht.de",
    "securitas": "Fehlt!",
    "lat": 51.6870428,
    "lon": 7.8092959,
    "datumAnfrage": "29.04.2025",
    "datumBestaetigung": "30.04.2025"
  },
  {
    "name": "S.B.S - Security UG",
    "milog": "OK",
    "phone": "0800 47 20000",
    "street": "Bahnhofstr. 3",
    "zip": "22941",
    "city": "Bargteheide",
    "email": "p.bultmann@sbs-security.de",
    "securitas": "Fehlt!",
    "lat": 53.7294748,
    "lon": 10.269476,
    "datumAnfrage": "03.08.2021",
    "datumBestaetigung": "03.08.2021"
  },
  {
    "name": "S.P.U. Solutions GmbH",
    "milog": "OK",
    "phone": "040 800084855",
    "street": "Stadthausbrücke 8",
    "zip": "20335",
    "city": "Hamburg",
    "email": "security@spu-solutions.de",
    "securitas": "Fehlt!",
    "lat": 53.5510447,
    "lon": 9.9860567,
    "datumAnfrage": "29.04.2024",
    "datumBestaetigung": "03.05.2024"
  },
  {
    "name": "Sächsische Wach- und Schließgesellschaft mbH",
    "milog": "OK",
    "phone": "0341 696390",
    "street": "Gabelsbergerstraße 8-10",
    "zip": "04317",
    "city": "Leipzig",
    "email": "nsl@swsg-sachsen.de",
    "securitas": "Fehlt!",
    "lat": 51.3402076,
    "lon": 12.3962731
  },
  {
    "name": "SAFEGUARD Wach & Sicherheitsdienst",
    "milog": "OK",
    "phone": "06224 9255807",
    "street": "Hauptstraße 83",
    "zip": "69226",
    "city": "Nussloch",
    "email": "info@safeguard-wsd.de",
    "securitas": "Fehlt!",
    "lat": 49.3233098,
    "lon": 8.6957789,
    "datumAnfrage": "27.07.2025",
    "datumBestaetigung": "27.07.2025"
  },
  {
    "name": "SCHUTZschild Bewachungsgesellschaft mbH",
    "milog": "OK",
    "phone": "0221 98865727",
    "street": "Rudolfplatz 12",
    "zip": "50674",
    "city": "Köln",
    "email": "info@schutzschild.de",
    "securitas": "Fehlt!",
    "lat": 50.9367768,
    "lon": 6.939719,
    "datumAnfrage": "02.06.2020",
    "datumBestaetigung": "22.06.2020"
  },
  {
    "name": "Security 24 e.K.",
    "milog": "OK",
    "phone": "089 548 758-74",
    "street": "Max-Planck-Straße 11",
    "zip": "85716",
    "city": "Unterschleißheim",
    "email": "info@security-24.eu",
    "securitas": "Fehlt!",
    "lat": 48.2832807,
    "lon": 11.5657881,
    "datumAnfrage": "26.07.2021",
    "datumBestaetigung": "26.07.2021"
  },
  {
    "name": "Sicherheit Nord",
    "milog": "OK",
    "phone": "030/7079200",
    "street": "Ringstr. 44/45",
    "zip": "12105",
    "city": "Berlin",
    "email": "nrz-berlin@sicherheit-nord.de",
    "securitas": "Fehlt!",
    "lat": 52.4426462,
    "lon": 13.3759662,
    "datumAnfrage": "20.07.2020",
    "datumBestaetigung": "15.01.2021"
  },
  {
    "name": "Sicherheit und Service Westfalen e.K.",
    "milog": "Angefragt",
    "phone": "05242 9860900",
    "street": "Mühlenstraße 16",
    "zip": "33378",
    "city": "Rheda-Wiedenbrück",
    "email": "info@sicherheitundservice.de",
    "securitas": "Fehlt!",
    "lat": 51.8395012,
    "lon": 8.2977157,
    "datumAnfrage": "20.03.2020",
    "datumBestaetigung": ""
  },
  {
    "name": "Sicherheitsdienst Christian Barth e.K.",
    "milog": "OK",
    "phone": "08932714603",
    "street": "Böhmerwaldstr.11",
    "zip": "85386",
    "city": "Eching",
    "email": "buero@sicherheitsdienst-barthj.de",
    "securitas": "Fehlt!",
    "lat": 48.3025616,
    "lon": 11.6181316,
    "datumAnfrage": "",
    "datumBestaetigung": "30.09.2023"
  },
  {
    "name": "Sicherheitsdienst RSS Security München",
    "milog": "OK",
    "phone": "089 12136320",
    "street": "Freihamer Weg 68",
    "zip": "81249",
    "city": "München",
    "email": "office@rss-security.de",
    "securitas": "Fehlt!",
    "lat": 48.1530831,
    "lon": 11.4103804
  },
  {
    "name": "Sicherheits-Service Halberstadt GmbH",
    "milog": "OK",
    "phone": "03941 61517",
    "street": "Wehrstedter Str. 48",
    "zip": "38820",
    "city": "Halberstadt",
    "email": "info@ssh-sicherheit.de",
    "securitas": "Fehlt!",
    "lat": 51.9013584,
    "lon": 11.061972,
    "datumAnfrage": "12.05.2020",
    "datumBestaetigung": "04.06.2020"
  },
  {
    "name": "Sidal Security",
    "milog": "OK",
    "phone": "0157 56171019",
    "street": "Seebruger Straße 25 a",
    "zip": "13581",
    "city": "Berlin",
    "email": "sidalisikli@gmail.com",
    "securitas": "Fehlt!",
    "lat": 52.5167,
    "lon": 13.4,
    "datumAnfrage": "",
    "datumBestaetigung": "01.02.2024"
  },
  {
    "name": "Siseva GmbH",
    "milog": "OK",
    "phone": "02630 9669116",
    "street": "Rudolf-Diesel-Straße 22",
    "zip": "56220",
    "city": "Urmitz",
    "email": "intervention@siseva.de",
    "securitas": "Fehlt!",
    "lat": 50.3997847,
    "lon": 7.5226125,
    "datumAnfrage": "11.11.2022",
    "datumBestaetigung": "11.11.22"
  },
  {
    "name": "Sitra Wach und Sicherheitsunternehmen",
    "milog": "OK",
    "phone": "03916219666",
    "street": "Leipziger Ch 167",
    "zip": "39120",
    "city": "Magdeburg",
    "email": "lfz@sitra-sicherheit.de",
    "securitas": "Fehlt!",
    "lat": 52.0711867,
    "lon": 11.6168308,
    "datumAnfrage": "02.10.2024",
    "datumBestaetigung": "02.10.2024"
  },
  {
    "name": "Solutions 4 Security GmbH",
    "milog": "OK",
    "phone": "0208 44416900",
    "street": "Hans-Sachs-Str. 8",
    "zip": "45473",
    "city": "Mülheim Ruhr",
    "email": "info@s4s-security.de",
    "securitas": "Fehlt!",
    "lat": 51.443878,
    "lon": 6.9086818,
    "datumAnfrage": "",
    "datumBestaetigung": "11.11.2020"
  },
  {
    "name": "SOS Security Service",
    "milog": "OK",
    "phone": "08459 325250",
    "street": "Meisenstr. 13",
    "zip": "85077",
    "city": "Manching",
    "email": "kontakt@sos-bayern.de",
    "securitas": "Fehlt!",
    "lat": 48.7185457,
    "lon": 11.4820003,
    "datumAnfrage": "21.12.2024",
    "datumBestaetigung": "21.12.2024"
  },
  {
    "name": "Soulution 4 Security GmbH (Für ganz NRW!)",
    "milog": "OK",
    "phone": "0208 69845964",
    "street": "Hans-Sachs-Straße 8",
    "zip": "45473",
    "city": "Mühlheim a.d.R.",
    "email": "info@s4s-security.de",
    "securitas": "Fehlt!",
    "lat": 51.5,
    "lon": 10.5
  },
  {
    "name": "SOW Sicherheitsdienst GmbH",
    "milog": "OK",
    "phone": "07143/95681000",
    "street": "Johannes-Bieg-Straße 18",
    "zip": "74391",
    "city": "Erligheim",
    "email": "info@sow-sicherheit.de",
    "securitas": "Fehlt!",
    "lat": 49.0208377,
    "lon": 9.0928216,
    "datumAnfrage": "19.01.2022",
    "datumBestaetigung": "19.01.2022"
  },
  {
    "name": "SSK-Security",
    "milog": "OK",
    "phone": "02732 203720",
    "street": "Eichener Str. 38-40",
    "zip": "57223",
    "city": "Kreuztal",
    "email": "info@ssk-security.de",
    "securitas": "Fehlt!",
    "lat": 50.9784766,
    "lon": 7.9687415,
    "datumAnfrage": "05.03.2020",
    "datumBestaetigung": "20.03.2020"
  },
  {
    "name": "Stürmer-ALARM GmbH",
    "milog": "OK",
    "phone": "02104 - 75051",
    "street": "Kastanienweg 1",
    "zip": "40822",
    "city": "Mettmann",
    "email": "post@stuermer-alarm.de",
    "securitas": "Fehlt!",
    "lat": 51.2556334,
    "lon": 6.9588072
  },
  {
    "name": "SVED Security & Service GmbH",
    "milog": "OK",
    "phone": "017632869785",
    "street": "Gartenstr. 40",
    "zip": "73033",
    "city": "Göppingen",
    "email": "info@sved-security.de",
    "securitas": "Fehlt!",
    "lat": 48.7002336,
    "lon": 9.6550362,
    "datumAnfrage": "",
    "datumBestaetigung": "08.06.2024"
  },
  {
    "name": "SWD Security GMBH (Torgau)",
    "milog": "OK",
    "phone": "0351-4330790",
    "street": "Am Stadtpark 1",
    "zip": "04860",
    "city": "Torgau",
    "email": "hotline@swd-security.de",
    "securitas": "Fehlt!",
    "lat": 51.5644672,
    "lon": 13.00046
  },
  {
    "name": "SWD Security GMBH (Dresden)",
    "milog": "OK",
    "phone": "0351 43307910",
    "street": "Bärensteiner Str. 18",
    "zip": "01277",
    "city": "Dresden",
    "email": "hotline@swd-security.de",
    "securitas": "Fehlt!",
    "lat": 51.0375164,
    "lon": 13.802179
  },
  {
    "name": "Tsecurity",
    "milog": "OK",
    "phone": "0174 9186805",
    "street": "Am Wollhaus 13",
    "zip": "74072",
    "city": "Heilbronn",
    "email": "info@security-jt.de",
    "securitas": "Fehlt!",
    "lat": 49.1393836,
    "lon": 9.2213099,
    "datumAnfrage": "20.01.2024",
    "datumBestaetigung": "20.01.2024"
  },
  {
    "name": "Univers Security&Service",
    "milog": "OK",
    "phone": "0768 14922110",
    "street": "St.-Margareten-Str. 20",
    "zip": "79183",
    "city": "Waldkirchen im Breisgau",
    "email": "info@universsecurity.de",
    "securitas": "Fehlt!",
    "lat": 48,
    "lon": 7.7,
    "datumAnfrage": "",
    "datumBestaetigung": "06.07.2022"
  },
  {
    "name": "Vollmergruppe",
    "milog": "OK",
    "phone": "0208588577",
    "street": "Neckarstr 22-24",
    "zip": "45478",
    "city": "Mülheim Ruhr",
    "email": "zentrale@vollmergruppe.de",
    "securitas": "Fehlt!",
    "lat": 51.4329354,
    "lon": 6.8585024,
    "datumAnfrage": "29.11.2021",
    "datumBestaetigung": "29.11.2021"
  },
  {
    "name": "VSD Victory Sicherheitsdienste GmbH",
    "milog": "OK",
    "phone": "08955077790",
    "street": "Hirtenstr. 26",
    "zip": "80335",
    "city": "München",
    "email": "ezmuenchen@vsd-sicherheitsdienste.de",
    "securitas": "Fehlt!",
    "lat": 48.1428671,
    "lon": 11.5571894,
    "datumAnfrage": "19.10.2020",
    "datumBestaetigung": "19.10.2020"
  },
  {
    "name": "VSS Sicherheitsdienst",
    "milog": "Angefragt",
    "phone": "0175/9623594",
    "street": "Johann-Siegmund-Schuckert-Straße 2A",
    "zip": "34225",
    "city": "Baunatal",
    "email": "d.basak@vss-sicherheitsdienst.de",
    "securitas": "Fehlt!",
    "lat": 51.2535842,
    "lon": 9.4110342,
    "datumAnfrage": "12.03.2022",
    "datumBestaetigung": ""
  },
  {
    "name": "VSU Bewachungs- und Sicherheitsunternehmen GmbH Thüringen",
    "milog": "Angefragt",
    "phone": "03643 425990",
    "street": "Linderbacher Weg 30",
    "zip": "99099",
    "city": "Erfurt",
    "email": "service@vsu-thueringen.de",
    "securitas": "Fehlt!",
    "lat": 50.9769965,
    "lon": 11.0853098
  },
  {
    "name": "VSU Hamburg Wacht GmbH",
    "milog": "OK",
    "phone": "040 6569010",
    "street": "Efftingestraße 17",
    "zip": "22041",
    "city": "Hamburg",
    "email": "info@vsu-hamburg.de",
    "securitas": "Fehlt!",
    "lat": 53.5757842,
    "lon": 10.0834137,
    "datumAnfrage": "18.05.2020",
    "datumBestaetigung": "18.05.2020"
  },
  {
    "name": "VSU Wachdienst Rhein Ruhr GmbH",
    "milog": "OK",
    "phone": "0202 644551",
    "street": "Küllenhahner Str. 37",
    "zip": "42349",
    "city": "Wuppertal",
    "email": "Bitte erfragen und eintragen",
    "securitas": "Fehlt!",
    "lat": 51.2291321,
    "lon": 7.1474106,
    "datumAnfrage": "18.05.2020",
    "datumBestaetigung": "20.05.2020"
  },
  {
    "name": "VSU Wachdienst Rheinland-Westfalen GmbH",
    "milog": "Angefragt",
    "phone": "0221 203060",
    "street": "Löwengasse 11",
    "zip": "50676",
    "city": "Köln",
    "email": "",
    "securitas": "Fehlt!",
    "lat": 50.9302366,
    "lon": 6.9580267,
    "datumAnfrage": "09.08.2016",
    "datumBestaetigung": ""
  },
  {
    "name": "VSU Wachdienst Rhein-Ruhr GmbH, Bochum",
    "milog": "OK",
    "phone": "0234 50680",
    "street": "Bergstraße 176",
    "zip": "44807",
    "city": "Bochum",
    "email": "nsl-fk@wrr-sicherheit.de",
    "securitas": "Fehlt!",
    "lat": 51.4984324,
    "lon": 7.2258843,
    "datumAnfrage": "",
    "datumBestaetigung": "20.05.2020"
  },
  {
    "name": "W.I.S. SICHERHEIT + SERVICE",
    "milog": "OK",
    "phone": "0821 2077702",
    "street": "Hirblinger Str. 133",
    "zip": "86156",
    "city": "Augsburg",
    "email": "zentraleaugsburg@wis-sicherheit.de",
    "securitas": "Fehlt!",
    "lat": 48.3937014,
    "lon": 10.8658806,
    "datumAnfrage": "44390",
    "datumBestaetigung": "44390"
  },
  {
    "name": "WAB Niederrhein GmbH",
    "milog": "OK",
    "phone": "02841 95880",
    "street": "Carl-Zeiss-Straße 40",
    "zip": "47445",
    "city": "Moers",
    "email": "nsl@wab-security.de",
    "securitas": "Fehlt!",
    "lat": 51.4774997,
    "lon": 6.5957378,
    "datumAnfrage": "11.05.2020",
    "datumBestaetigung": "12.05.2020"
  },
  {
    "name": "Wach & Sicherheitsdienst Sennefelder GmbH",
    "milog": "OK",
    "phone": "0950 3921257",
    "street": "Trunstadter Hauptstraße 63",
    "zip": "96191",
    "city": "Viereth - Trunstadt",
    "email": "kontakt@wsd-sennefelder.de",
    "securitas": "Fehlt!",
    "lat": 49.9305059,
    "lon": 10.7478926,
    "datumAnfrage": "",
    "datumBestaetigung": "22.06.2021"
  },
  {
    "name": "Wach- & Sicherheitsdienst Sennefelder GmbH",
    "milog": "OK",
    "phone": "09503 921257",
    "street": "Trunstadter Hauptstraße 63",
    "zip": "96191",
    "city": "Viereth - Trunstadt",
    "email": "kontakt@wsd-sennefelder.de",
    "securitas": "Fehlt!",
    "lat": 49.9305059,
    "lon": 10.7478926,
    "datumAnfrage": "22.06.2021",
    "datumBestaetigung": "22.06.2021"
  },
  {
    "name": "Wachdienst Krefeld Wilhelm Esters GmbH",
    "milog": "Angefragt",
    "phone": "02151 585810",
    "street": "Grenzstraße 99",
    "zip": "47799",
    "city": "Krefeld",
    "email": "info@wachdienst-krefeld.de",
    "securitas": "Fehlt!",
    "lat": 51.338895,
    "lon": 6.5857614,
    "datumAnfrage": "10.06.2020",
    "datumBestaetigung": ""
  },
  {
    "name": "Wachdienst Stangenberg UG",
    "milog": "OK",
    "phone": "02831-9787320 / 01792688145",
    "street": "Leeg-Poelycker-Str. 13",
    "zip": "47647",
    "city": "Kerken",
    "email": "info@wachdienst-stangenberg.de",
    "securitas": "Fehlt!",
    "lat": 51.4748561,
    "lon": 6.3701637,
    "datumAnfrage": "04.06.2025",
    "datumBestaetigung": "04.06.2025"
  },
  {
    "name": "Wächter Sicherheitsdienste R.M. GmbH",
    "milog": "OK",
    "phone": "069 5050604940",
    "street": "Taunusanlage 9-10",
    "zip": "60329",
    "city": "Frankfurt Innenstadt",
    "email": "service@conexis.de",
    "securitas": "Fehlt!",
    "lat": 50.1122937,
    "lon": 8.6685378
  },
  {
    "name": "Wackler Security GmbH",
    "milog": "OK",
    "phone": "03722 511147",
    "street": "Chemnitzer Str. 36",
    "zip": "09247",
    "city": "Chemnitz",
    "email": "Bitte erfragen und eintragen",
    "securitas": "Fehlt!",
    "lat": 50.8619052,
    "lon": 12.8469481,
    "datumAnfrage": "20.07.2020",
    "datumBestaetigung": "20.07.2020"
  },
  {
    "name": "WAKO Nord GmbH",
    "milog": "OK",
    "phone": "04141 6067-0",
    "street": "Brinkstr. 9-11",
    "zip": "21680",
    "city": "Stade",
    "email": "Bitte erfragen und eintragen",
    "securitas": "Fehlt!",
    "lat": 53.5941761,
    "lon": 9.4818996,
    "datumAnfrage": "",
    "datumBestaetigung": "14.10.2015"
  },
  {
    "name": "Weiland Security",
    "milog": "OK",
    "phone": "06752 1509104",
    "street": "Raiffeisenstraße 8",
    "zip": "55619",
    "city": "Hennweiler",
    "email": "info@weiland-security.de",
    "securitas": "Fehlt!",
    "lat": 49.8201781,
    "lon": 7.4315908,
    "datumAnfrage": "26.06.2022",
    "datumBestaetigung": "26.06.2022"
  },
  {
    "name": "Westfälischer Sicherheitsdienst",
    "milog": "OK",
    "phone": "0151 45960347",
    "street": "Simonsstr. 47",
    "zip": "42117",
    "city": "Wuppertal",
    "email": "kontakt@wsd-bewachung.de",
    "securitas": "Fehlt!",
    "lat": 51.2479517,
    "lon": 7.1290627
  },
  {
    "name": "Westfälischer Wachschutz GmbH & Co. KG",
    "milog": "OK",
    "phone": "02361 904220",
    "street": "Herzogswall 30",
    "zip": "45657",
    "city": "Recklinghausen",
    "email": "notrufzentrale@wws-security.de",
    "securitas": "Fehlt!",
    "lat": 51.6161828,
    "lon": 7.1938812
  },
  {
    "name": "Wiking Sicherheits-Team",
    "milog": "OK",
    "phone": "030 411 98411",
    "street": "Louis-Blériot-Str.5",
    "zip": "12487",
    "city": "Berlin",
    "email": "info@alarm-service-center.de",
    "securitas": "Fehlt!",
    "lat": 52.4448952,
    "lon": 13.5181269,
    "datumAnfrage": "16.05.2022",
    "datumBestaetigung": "16.05.2022"
  },
  {
    "name": "WOS GmbH & Co. KG",
    "milog": "OK",
    "phone": "05231 6294400",
    "street": "Hornsche Str. 132",
    "zip": "32760",
    "city": "Detmold",
    "email": "info@wo-sicherheit.de",
    "securitas": "Fehlt!",
    "lat": 51.9219865,
    "lon": 8.8998942,
    "datumAnfrage": "14.05.2020",
    "datumBestaetigung": "18.05.2020"
  },
  {
    "name": "WSD Wach- und Sicherheits-dienst Limited & Co. KG",
    "milog": "OK",
    "phone": "039322 99922",
    "street": "Arneburger Straße 37",
    "zip": "39590",
    "city": "Tangermünde",
    "email": "Bitte erfragen und eintragen",
    "securitas": "Fehlt!",
    "lat": 52.5522066,
    "lon": 11.9806212
  },
  {
    "name": "WSG Wach- und Sicherheits GmbH (Hoyerswerda)",
    "milog": "OK",
    "phone": "03571 / 91 19 - 0",
    "street": "Albert-Einstein-Straße 47",
    "zip": "02977",
    "city": "Hoyerswerda",
    "email": "info@wsg-hy.de",
    "securitas": "Fehlt!",
    "lat": 51.4384228,
    "lon": 14.2546103
  },
  {
    "name": "WSG Wach- und Sicherheits GmbH (Zossen)",
    "milog": "OK",
    "phone": "+49 (0) 33702 6070",
    "street": "Berliner Allee 30-32",
    "zip": "15806",
    "city": "Zossen",
    "email": "info@wsg-service.de",
    "securitas": "Fehlt!",
    "lat": 52.17244,
    "lon": 13.4701091
  },
  {
    "name": "WSM Wachschutz GmbH Mittweida",
    "milog": "Angefragt",
    "phone": "03727 62040",
    "street": "Tzschirnerstraße 6",
    "zip": "09648",
    "city": "Mittweida",
    "email": "info@ws-mittweida.de",
    "securitas": "Fehlt!",
    "lat": 50.9868872,
    "lon": 12.9749452,
    "datumAnfrage": "06.02.2017",
    "datumBestaetigung": ""
  },
  {
    "name": "WSN Sicherheit & Service GmbH",
    "milog": "OK",
    "phone": "0395351414",
    "street": "Mirabellenstr. 5",
    "zip": "17033",
    "city": "Neubrandenburg",
    "email": "nrz@wsn.de",
    "securitas": "Fehlt!",
    "lat": 53.5265974,
    "lon": 13.2662592,
    "datumAnfrage": "",
    "datumBestaetigung": "26.10.2021"
  },
  {
    "name": "WSW Dahlmann GmbH",
    "milog": "OK",
    "phone": "0281/651",
    "street": "Handelsweg 7",
    "zip": "46485",
    "city": "Wesel",
    "email": "info@wachdienst-wesel.de",
    "securitas": "Fehlt!",
    "lat": 51.6755567,
    "lon": 6.6272611,
    "datumAnfrage": "14.12.2021",
    "datumBestaetigung": "14.12.2021"
  },
  {
    "name": "WUI - Werk- und Industrieschutz GmbH & Co. KG",
    "milog": "OK",
    "phone": "06897 4999",
    "street": "Vopeliusstraße 12",
    "zip": "66280",
    "city": "Sulzbach/Saar",
    "email": "Bitte erfragen und eintragen",
    "securitas": "Fehlt!",
    "lat": 49.3001056,
    "lon": 7.0592462,
    "datumAnfrage": "13.03.2020",
    "datumBestaetigung": "22.04.2020"
  },
  {
    "name": "Zossener Schutz und Sicherheit GmbH",
    "milog": "OK",
    "phone": "033773279390",
    "street": "Baruther Straße 4",
    "zip": "15806",
    "city": "Zossen",
    "email": "info@zossener-security.de",
    "securitas": "Fehlt!",
    "lat": 52.21496092385588,
    "lon": 13.450988674293155,
    "datumAnfrage": "10.12.2024",
    "datumBestaetigung": "10.12.2024"
  },
  {
    "name": "Limbach Secur Sicherheitstechnik GmbH",
    "milog": "OK",
    "phone": "0222 592000",
    "street": "Bergerwiesenstr. 9",
    "zip": "53340",
    "city": "Meckenheim",
    "email": "info@limbach-secur.de",
    "securitas": "Fehlt!",
    "lat": 50.63841063276897,
    "lon": 7.0192384263713015,
    "datumAnfrage": "",
    "datumBestaetigung": "09.01.2025"
  }
]